{
  "restaurants": [
    {
      "name": "Accent",
      "latitude": -8.671,
      "longitude": 115.213,
      "location": "Canggu",
      "area": "Canggu",
      "zone": "Beach",
      "formatted_address": "Accent, Canggu, Bali, Indonesia",
      "found_automatically": false,
      "test_generated": true,
      "timestamp": "2025-07-26T06:14:41.139531"
    },
    {
      "name": "Ame",
      "latitude": -8.617,
      "longitude": 115.17,
      "location": "Seminyak",
      "area": "Seminyak",
      "zone": "Central",
      "formatted_address": "Ame, Seminyak, Bali, Indonesia",
      "found_automatically": false,
      "test_generated": true,
      "timestamp": "2025-07-26T06:14:41.139571"
    },
    {
      "name": "Asai Cafe (Jimbaran)",
      "latitude": -8.786999999999999,
      "longitude": 115.16799999999999,
      "location": "Jimbaran",
      "area": "Jimbaran",
      "zone": "South",
      "formatted_address": "Asai Cafe (Jimbaran), Jimbaran, Bali, Indonesia",
      "found_automatically": false,
      "test_generated": true,
      "timestamp": "2025-07-26T06:14:41.139574"
    },
    {
      "name": "Balagan",
      "latitude": -8.504,
      "longitude": 115.265,
      "location": "Ubud",
      "area": "Ubud",
      "zone": "Mountain",
      "formatted_address": "Balagan, Ubud, Bali, Indonesia",
      "found_automatically": false,
      "test_generated": true,
      "timestamp": "2025-07-26T06:14:41.139578"
    },
    {
      "name": "Bazar (Canggu)",
      "latitude": -8.667,
      "longitude": 115.217,
      "location": "Canggu",
      "area": "Canggu",
      "zone": "Beach",
      "formatted_address": "Bazar (Canggu), Canggu, Bali, Indonesia",
      "found_automatically": false,
      "test_generated": true,
      "timestamp": "2025-07-26T06:14:41.139580"
    },
    {
      "name": "Brie",
      "latitude": -8.783999999999999,
      "longitude": 115.17099999999999,
      "location": "Jimbaran",
      "area": "Jimbaran",
      "zone": "South",
      "formatted_address": "Brie, Jimbaran, Bali, Indonesia",
      "found_automatically": false,
      "test_generated": true,
      "timestamp": "2025-07-26T06:14:41.139582"
    },
    {
      "name": "Bright (Canggu)",
      "latitude": -8.665,
      "longitude": 115.219,
      "location": "Canggu",
      "area": "Canggu",
      "zone": "Beach",
      "formatted_address": "Bright (Canggu), Canggu, Bali, Indonesia",
      "found_automatically": false,
      "test_generated": true,
      "timestamp": "2025-07-26T06:14:41.139583"
    },
    {
      "name": "Chefs Crate",
      "latitude": -8.611,
      "longitude": 115.176,
      "location": "Seminyak",
      "area": "Seminyak",
      "zone": "Central",
      "formatted_address": "Chefs Crate, Seminyak, Bali, Indonesia",
      "found_automatically": false,
      "test_generated": true,
      "timestamp": "2025-07-26T06:14:41.139585"
    },
    {
      "name": "Cosmo Burger (Canggu)",
      "latitude": -8.663,
      "longitude": 115.22099999999999,
      "location": "Canggu",
      "area": "Canggu",
      "zone": "Beach",
      "formatted_address": "Cosmo Burger (Canggu), Canggu, Bali, Indonesia",
      "found_automatically": false,
      "test_generated": true,
      "timestamp": "2025-07-26T06:14:41.139587"
    },
    {
      "name": "Crave Cookies (Canggu)",
      "latitude": -8.661999999999999,
      "longitude": 115.222,
      "location": "Canggu",
      "area": "Canggu",
      "zone": "Beach",
      "formatted_address": "Crave Cookies (Canggu), Canggu, Bali, Indonesia",
      "found_automatically": false,
      "test_generated": true,
      "timestamp": "2025-07-26T06:14:41.139588"
    },
    {
      "name": "CreamSoda (Ubud)",
      "latitude": -8.507,
      "longitude": 115.262,
      "location": "Ubud",
      "area": "Ubud",
      "zone": "Mountain",
      "formatted_address": "CreamSoda (Ubud), Ubud, Bali, Indonesia",
      "found_automatically": false,
      "test_generated": true,
      "timestamp": "2025-07-26T06:14:41.139589"
    },
    {
      "name": "Dodo (Canggu)",
      "latitude": -8.67,
      "longitude": 115.214,
      "location": "Canggu",
      "area": "Canggu",
      "zone": "Beach",
      "formatted_address": "Dodo (Canggu), Canggu, Bali, Indonesia",
      "found_automatically": false,
      "test_generated": true,
      "timestamp": "2025-07-26T06:14:41.139592"
    },
    {
      "name": "Double smash burger (Canggu)",
      "latitude": -8.668999999999999,
      "longitude": 115.21499999999999,
      "location": "Canggu",
      "area": "Canggu",
      "zone": "Beach",
      "formatted_address": "Double smash burger (Canggu), Canggu, Bali, Indonesia",
      "found_automatically": false,
      "test_generated": true,
      "timestamp": "2025-07-26T06:14:41.139593"
    },
    {
      "name": "Ducat",
      "latitude": -8.615,
      "longitude": 115.172,
      "location": "Seminyak",
      "area": "Seminyak",
      "zone": "Central",
      "formatted_address": "Ducat, Seminyak, Bali, Indonesia",
      "found_automatically": false,
      "test_generated": true,
      "timestamp": "2025-07-26T06:14:41.139595"
    },
    {
      "name": "EGGSPOT (Canggu)",
      "latitude": -8.667,
      "longitude": 115.217,
      "location": "Canggu",
      "area": "Canggu",
      "zone": "Beach",
      "formatted_address": "EGGSPOT (Canggu), Canggu, Bali, Indonesia",
      "found_automatically": false,
      "test_generated": true,
      "timestamp": "2025-07-26T06:14:41.139596"
    },
    {
      "name": "Eggspress (Canggu)",
      "latitude": -8.665999999999999,
      "longitude": 115.21799999999999,
      "location": "Canggu",
      "area": "Canggu",
      "zone": "Beach",
      "formatted_address": "Eggspress (Canggu), Canggu, Bali, Indonesia",
      "found_automatically": false,
      "test_generated": true,
      "timestamp": "2025-07-26T06:14:41.139597"
    },
    {
      "name": "Ele",
      "latitude": -8.823,
      "longitude": 115.09,
      "location": "Uluwatu",
      "area": "Uluwatu",
      "zone": "Cliff",
      "formatted_address": "Ele, Uluwatu, Bali, Indonesia",
      "found_automatically": false,
      "test_generated": true,
      "timestamp": "2025-07-26T06:14:41.139599"
    },
    {
      "name": "Healthy Fit (Canggu)",
      "latitude": -8.664,
      "longitude": 115.22,
      "location": "Canggu",
      "area": "Canggu",
      "zone": "Beach",
      "formatted_address": "Healthy Fit (Canggu), Canggu, Bali, Indonesia",
      "found_automatically": false,
      "test_generated": true,
      "timestamp": "2025-07-26T06:14:41.139600"
    },
    {
      "name": "Healthy Tribes",
      "latitude": -8.663,
      "longitude": 115.22099999999999,
      "location": "Canggu",
      "area": "Canggu",
      "zone": "Beach",
      "formatted_address": "Healthy Tribes, Canggu, Bali, Indonesia",
      "found_automatically": false,
      "test_generated": true,
      "timestamp": "2025-07-26T06:14:41.139602"
    },
    {
      "name": "Honey Murena (Canggu)",
      "latitude": -8.661999999999999,
      "longitude": 115.222,
      "location": "Canggu",
      "area": "Canggu",
      "zone": "Beach",
      "formatted_address": "Honey Murena (Canggu), Canggu, Bali, Indonesia",
      "found_automatically": false,
      "test_generated": true,
      "timestamp": "2025-07-26T06:14:41.139603"
    },
    {
      "name": "HoneyFit",
      "latitude": -8.618,
      "longitude": 115.169,
      "location": "Kerobokan",
      "area": "Kerobokan",
      "zone": "Central",
      "formatted_address": "HoneyFit, Kerobokan, Bali, Indonesia",
      "found_automatically": false,
      "test_generated": true,
      "timestamp": "2025-07-26T06:14:41.139604"
    },
    {
      "name": "Honeycomb",
      "latitude": -8.506,
      "longitude": 115.263,
      "location": "Ubud",
      "area": "Ubud",
      "zone": "Mountain",
      "formatted_address": "Honeycomb, Ubud, Bali, Indonesia",
      "found_automatically": false,
      "test_generated": true,
      "timestamp": "2025-07-26T06:14:41.139606"
    },
    {
      "name": "Huge",
      "latitude": -8.827,
      "longitude": 115.086,
      "location": "Uluwatu",
      "area": "Uluwatu",
      "zone": "Cliff",
      "formatted_address": "Huge, Uluwatu, Bali, Indonesia",
      "found_automatically": false,
      "test_generated": true,
      "timestamp": "2025-07-26T06:14:41.139607"
    },
    {
      "name": "Ika Canggu",
      "latitude": -8.668,
      "longitude": 115.216,
      "location": "Canggu",
      "area": "Canggu",
      "zone": "Beach",
      "formatted_address": "Ika Canggu, Canggu, Bali, Indonesia",
      "found_automatically": false,
      "test_generated": true,
      "timestamp": "2025-07-26T06:14:41.139608"
    },
    {
      "name": "Ika Kero",
      "latitude": -8.614,
      "longitude": 115.173,
      "location": "Kerobokan",
      "area": "Kerobokan",
      "zone": "Central",
      "formatted_address": "Ika Kero, Kerobokan, Bali, Indonesia",
      "found_automatically": false,
      "test_generated": true,
      "timestamp": "2025-07-26T06:14:41.139609"
    },
    {
      "name": "Ika Ubud",
      "latitude": -8.501999999999999,
      "longitude": 115.267,
      "location": "Ubud",
      "area": "Ubud",
      "zone": "Mountain",
      "formatted_address": "Ika Ubud, Ubud, Bali, Indonesia",
      "found_automatically": false,
      "test_generated": true,
      "timestamp": "2025-07-26T06:14:41.139611"
    },
    {
      "name": "Ika Uluwatu",
      "latitude": -8.823,
      "longitude": 115.09,
      "location": "Uluwatu",
      "area": "Uluwatu",
      "zone": "Cliff",
      "formatted_address": "Ika Uluwatu, Uluwatu, Bali, Indonesia",
      "found_automatically": false,
      "test_generated": true,
      "timestamp": "2025-07-26T06:14:41.139613"
    },
    {
      "name": "Immigrant (Canggu)",
      "latitude": -8.664,
      "longitude": 115.22,
      "location": "Canggu",
      "area": "Canggu",
      "zone": "Beach",
      "formatted_address": "Immigrant (Canggu), Canggu, Bali, Indonesia",
      "found_automatically": false,
      "test_generated": true,
      "timestamp": "2025-07-26T06:14:41.139614"
    },
    {
      "name": "Immigrant (Seminyak)",
      "latitude": -8.610000000000001,
      "longitude": 115.17699999999999,
      "location": "Seminyak",
      "area": "Seminyak",
      "zone": "Central",
      "formatted_address": "Immigrant (Seminyak), Seminyak, Bali, Indonesia",
      "found_automatically": false,
      "test_generated": true,
      "timestamp": "2025-07-26T06:14:41.139615"
    },
    {
      "name": "Lit pizza (Uluwatu)",
      "latitude": -8.82,
      "longitude": 115.093,
      "location": "Uluwatu",
      "area": "Uluwatu",
      "zone": "Cliff",
      "formatted_address": "Lit pizza (Uluwatu), Uluwatu, Bali, Indonesia",
      "found_automatically": false,
      "test_generated": true,
      "timestamp": "2025-07-26T06:14:41.139616"
    },
    {
      "name": "Lucky slice (Canggu)",
      "latitude": -8.671,
      "longitude": 115.213,
      "location": "Canggu",
      "area": "Canggu",
      "zone": "Beach",
      "formatted_address": "Lucky slice (Canggu), Canggu, Bali, Indonesia",
      "found_automatically": false,
      "test_generated": true,
      "timestamp": "2025-07-26T06:14:41.139618"
    },
    {
      "name": "Mela",
      "latitude": -8.617,
      "longitude": 115.17,
      "location": "Seminyak",
      "area": "Seminyak",
      "zone": "Central",
      "formatted_address": "Mela, Seminyak, Bali, Indonesia",
      "found_automatically": false,
      "test_generated": true,
      "timestamp": "2025-07-26T06:14:41.139620"
    },
    {
      "name": "Monsta pizza",
      "latitude": -8.616,
      "longitude": 115.17099999999999,
      "location": "Kerobokan",
      "area": "Kerobokan",
      "zone": "Central",
      "formatted_address": "Monsta pizza, Kerobokan, Bali, Indonesia",
      "found_automatically": false,
      "test_generated": true,
      "timestamp": "2025-07-26T06:14:41.139621"
    },
    {
      "name": "Mur Mur",
      "latitude": -8.504,
      "longitude": 115.265,
      "location": "Ubud",
      "area": "Ubud",
      "zone": "Mountain",
      "formatted_address": "Mur Mur, Ubud, Bali, Indonesia",
      "found_automatically": false,
      "test_generated": true,
      "timestamp": "2025-07-26T06:14:41.139623"
    },
    {
      "name": "My Place (Canggu)",
      "latitude": -8.667,
      "longitude": 115.217,
      "location": "Canggu",
      "area": "Canggu",
      "zone": "Beach",
      "formatted_address": "My Place (Canggu), Canggu, Bali, Indonesia",
      "found_automatically": false,
      "test_generated": true,
      "timestamp": "2025-07-26T06:14:41.139624"
    },
    {
      "name": "My Place (Seminyak)",
      "latitude": -8.613,
      "longitude": 115.17399999999999,
      "location": "Seminyak",
      "area": "Seminyak",
      "zone": "Central",
      "formatted_address": "My Place (Seminyak), Seminyak, Bali, Indonesia",
      "found_automatically": false,
      "test_generated": true,
      "timestamp": "2025-07-26T06:14:41.139626"
    },
    {
      "name": "Nautilus",
      "latitude": -8.665,
      "longitude": 115.219,
      "location": "Canggu",
      "area": "Canggu",
      "zone": "Beach",
      "formatted_address": "Nautilus, Canggu, Bali, Indonesia",
      "found_automatically": false,
      "test_generated": true,
      "timestamp": "2025-07-26T06:14:41.139627"
    },
    {
      "name": "Ninja Sushi (Canggu)",
      "latitude": -8.664,
      "longitude": 115.22,
      "location": "Canggu",
      "area": "Canggu",
      "zone": "Beach",
      "formatted_address": "Ninja Sushi (Canggu), Canggu, Bali, Indonesia",
      "found_automatically": false,
      "test_generated": true,
      "timestamp": "2025-07-26T06:14:41.139629"
    },
    {
      "name": "Ninja Sushi (Kero)",
      "latitude": -8.610000000000001,
      "longitude": 115.17699999999999,
      "location": "Kerobokan",
      "area": "Kerobokan",
      "zone": "Central",
      "formatted_address": "Ninja Sushi (Kero), Kerobokan, Bali, Indonesia",
      "found_automatically": false,
      "test_generated": true,
      "timestamp": "2025-07-26T06:14:41.139630"
    },
    {
      "name": "Ninja Sushi (Ubud)",
      "latitude": -8.498,
      "longitude": 115.271,
      "location": "Ubud",
      "area": "Ubud",
      "zone": "Mountain",
      "formatted_address": "Ninja Sushi (Ubud), Ubud, Bali, Indonesia",
      "found_automatically": false,
      "test_generated": true,
      "timestamp": "2025-07-26T06:14:41.139631"
    },
    {
      "name": "Ninja Sushi (Uluwatu)",
      "latitude": -8.829,
      "longitude": 115.084,
      "location": "Uluwatu",
      "area": "Uluwatu",
      "zone": "Cliff",
      "formatted_address": "Ninja Sushi (Uluwatu), Uluwatu, Bali, Indonesia",
      "found_automatically": false,
      "test_generated": true,
      "timestamp": "2025-07-26T06:14:41.139633"
    },
    {
      "name": "Only Eggs",
      "latitude": -8.788,
      "longitude": 115.167,
      "location": "Jimbaran",
      "area": "Jimbaran",
      "zone": "South",
      "formatted_address": "Only Eggs, Jimbaran, Bali, Indonesia",
      "found_automatically": false,
      "test_generated": true,
      "timestamp": "2025-07-26T06:14:41.139635"
    },
    {
      "name": "Only Kebab",
      "latitude": -8.668999999999999,
      "longitude": 115.21499999999999,
      "location": "Canggu",
      "area": "Canggu",
      "zone": "Beach",
      "formatted_address": "Only Kebab, Canggu, Bali, Indonesia",
      "found_automatically": false,
      "test_generated": true,
      "timestamp": "2025-07-26T06:14:41.139636"
    },
    {
      "name": "Pink man 2 (Berawa)",
      "latitude": -8.668,
      "longitude": 115.216,
      "location": "Berawa",
      "area": "Berawa",
      "zone": "Beach",
      "formatted_address": "Pink man 2 (Berawa), Berawa, Bali, Indonesia",
      "found_automatically": false,
      "test_generated": true,
      "timestamp": "2025-07-26T06:14:41.139637"
    },
    {
      "name": "Pinkman",
      "latitude": -8.614,
      "longitude": 115.173,
      "location": "Kerobokan",
      "area": "Kerobokan",
      "zone": "Central",
      "formatted_address": "Pinkman, Kerobokan, Bali, Indonesia",
      "found_automatically": false,
      "test_generated": true,
      "timestamp": "2025-07-26T06:14:41.139638"
    },
    {
      "name": "Plant Theory (Canggu)",
      "latitude": -8.665999999999999,
      "longitude": 115.21799999999999,
      "location": "Canggu",
      "area": "Canggu",
      "zone": "Beach",
      "formatted_address": "Plant Theory (Canggu), Canggu, Bali, Indonesia",
      "found_automatically": false,
      "test_generated": true,
      "timestamp": "2025-07-26T06:14:41.139640"
    },
    {
      "name": "Prana",
      "latitude": -8.823,
      "longitude": 115.09,
      "location": "Uluwatu",
      "area": "Uluwatu",
      "zone": "Cliff",
      "formatted_address": "Prana, Uluwatu, Bali, Indonesia",
      "found_automatically": false,
      "test_generated": true,
      "timestamp": "2025-07-26T06:14:41.139641"
    },
    {
      "name": "Protein Kitchen",
      "latitude": -8.782,
      "longitude": 115.173,
      "location": "Jimbaran",
      "area": "Jimbaran",
      "zone": "South",
      "formatted_address": "Protein Kitchen, Jimbaran, Bali, Indonesia",
      "found_automatically": false,
      "test_generated": true,
      "timestamp": "2025-07-26T06:14:41.139642"
    },
    {
      "name": "Quick and Tasty",
      "latitude": -8.663,
      "longitude": 115.22099999999999,
      "location": "Canggu",
      "area": "Canggu",
      "zone": "Beach",
      "formatted_address": "Quick and Tasty, Canggu, Bali, Indonesia",
      "found_automatically": false,
      "test_generated": true,
      "timestamp": "2025-07-26T06:14:41.139644"
    },
    {
      "name": "Ropana",
      "latitude": -8.609,
      "longitude": 115.178,
      "location": "Seminyak",
      "area": "Seminyak",
      "zone": "Central",
      "formatted_address": "Ropana, Seminyak, Bali, Indonesia",
      "found_automatically": false,
      "test_generated": true,
      "timestamp": "2025-07-26T06:14:41.139645"
    },
    {
      "name": "See You",
      "latitude": -8.618,
      "longitude": 115.169,
      "location": "Kerobokan",
      "area": "Kerobokan",
      "zone": "Central",
      "formatted_address": "See You, Kerobokan, Bali, Indonesia",
      "found_automatically": false,
      "test_generated": true,
      "timestamp": "2025-07-26T06:14:41.139647"
    },
    {
      "name": "Sexy Fish Sushi",
      "latitude": -8.506,
      "longitude": 115.263,
      "location": "Ubud",
      "area": "Ubud",
      "zone": "Mountain",
      "formatted_address": "Sexy Fish Sushi, Ubud, Bali, Indonesia",
      "found_automatically": false,
      "test_generated": true,
      "timestamp": "2025-07-26T06:14:41.139648"
    },
    {
      "name": "Signa",
      "latitude": -8.827,
      "longitude": 115.086,
      "location": "Uluwatu",
      "area": "Uluwatu",
      "zone": "Cliff",
      "formatted_address": "Signa, Uluwatu, Bali, Indonesia",
      "found_automatically": false,
      "test_generated": true,
      "timestamp": "2025-07-26T06:14:41.139649"
    },
    {
      "name": "Smashed potato",
      "latitude": -8.786,
      "longitude": 115.169,
      "location": "Jimbaran",
      "area": "Jimbaran",
      "zone": "South",
      "formatted_address": "Smashed potato, Jimbaran, Bali, Indonesia",
      "found_automatically": false,
      "test_generated": true,
      "timestamp": "2025-07-26T06:14:41.139651"
    },
    {
      "name": "Soul Kitchen",
      "latitude": -8.667,
      "longitude": 115.217,
      "location": "Canggu",
      "area": "Canggu",
      "zone": "Beach",
      "formatted_address": "Soul Kitchen, Canggu, Bali, Indonesia",
      "found_automatically": false,
      "test_generated": true,
      "timestamp": "2025-07-26T06:14:41.139652"
    },
    {
      "name": "Taco Bus (Canggu)",
      "latitude": -8.665999999999999,
      "longitude": 115.21799999999999,
      "location": "Canggu",
      "area": "Canggu",
      "zone": "Beach",
      "formatted_address": "Taco Bus (Canggu), Canggu, Bali, Indonesia",
      "found_automatically": false,
      "test_generated": true,
      "timestamp": "2025-07-26T06:14:41.139653"
    },
    {
      "name": "Teamo",
      "latitude": -8.612,
      "longitude": 115.175,
      "location": "Kerobokan",
      "area": "Kerobokan",
      "zone": "Central",
      "formatted_address": "Teamo, Kerobokan, Bali, Indonesia",
      "found_automatically": false,
      "test_generated": true,
      "timestamp": "2025-07-26T06:14:41.139654"
    },
    {
      "name": "The Roof (Sanur)",
      "latitude": -8.663,
      "longitude": 115.269,
      "location": "Sanur",
      "area": "Sanur",
      "zone": "East",
      "formatted_address": "The Roof (Sanur), Sanur, Bali, Indonesia",
      "found_automatically": false,
      "test_generated": true,
      "timestamp": "2025-07-26T06:14:41.139656"
    },
    {
      "name": "The Room",
      "latitude": -8.821000000000002,
      "longitude": 115.092,
      "location": "Uluwatu",
      "area": "Uluwatu",
      "zone": "Cliff",
      "formatted_address": "The Room, Uluwatu, Bali, Indonesia",
      "found_automatically": false,
      "test_generated": true,
      "timestamp": "2025-07-26T06:14:41.139657"
    }
  ],
  "total_count": 59,
  "last_updated": "2025-07-26T06:14:41.139679",
  "test_generated": true,
  "note": "Тестовые координаты - замените на реальные через Google Maps API"
}